{
  "kutsugata_position": {
    "lat": 45.2194,
    "lon": 141.2133,
    "theta": 345.4
  },
  "total_nearby_10km": 204,
  "best_matches_3km": 2,
  "top_30_by_distance": [
    {
      "name": "H_2337_2369",
      "town": "利尻富士町",
      "district": "鴛泊",
      "buraku": "湾内",
      "lat": 45.2337791,
      "lon": 141.2369709,
      "distance_from_kutsugata": 2.448052723310041,
      "theta": 6.119500877659959,
      "theta_diff": 20.746167033079644
    },
    {
      "name": "H_2331_2380",
      "town": "利尻富士町",
      "district": "鴛泊",
      "buraku": "湾内",
      "lat": 45.2331577,
      "lon": 141.2380102,
      "distance_from_kutsugata": 2.4668235291910334,
      "theta": 6.942969979881582,
      "theta_diff": 21.569636135301266
    },
    {
      "name": "H_2393_2280",
      "town": "利尻富士町",
      "district": "鴛泊",
      "buraku": "港町",
      "lat": 45.2393215,
      "lon": 141.2280094,
      "distance_from_kutsugata": 2.4967737016790092,
      "theta": 359.6569352977335,
      "theta_diff": 14.28360145315321
    },
    {
      "name": "H_2339_2382",
      "town": "利尻富士町",
      "district": "鴛泊",
      "buraku": "湾内",
      "lat": 45.2339095,
      "lon": 141.2382436,
      "distance_from_kutsugata": 2.5335756605062008,
      "theta": 7.017005692667794,
      "theta_diff": 21.64367184808748
    },
    {
      "name": "H_2339_2388",
      "town": "利尻富士町",
      "district": "鴛泊",
      "buraku": "湾内",
      "lat": 45.2339941,
      "lon": 141.238894,
      "distance_from_kutsugata": 2.5789610792674784,
      "theta": 7.470364003086786,
      "theta_diff": 22.09703015850647
    },
    {
      "name": "H_2342_2390",
      "town": "利尻富士町",
      "district": "鴛泊",
      "buraku": "湾内",
      "lat": 45.2342601,
      "lon": 141.2390011,
      "distance_from_kutsugata": 2.6041481517866734,
      "theta": 7.511219579534554,
      "theta_diff": 22.13788573495424
    },
    {
      "name": "H_2344_2393",
      "town": "利尻富士町",
      "district": "鴛泊",
      "buraku": "湾内",
      "lat": 45.2344229,
      "lon": 141.2393335,
      "distance_from_kutsugata": 2.635753718180031,
      "theta": 7.724575329260915,
      "theta_diff": 22.3512414846806
    },
    {
      "name": "H_2343_2407",
      "town": "利尻富士町",
      "district": "鴛泊",
      "buraku": "湾内",
      "lat": 45.2343285,
      "lon": 141.2407067,
      "distance_from_kutsugata": 2.7133604191703204,
      "theta": 8.706487910045723,
      "theta_diff": 23.333154065465408
    },
    {
      "name": "H_2337_2418",
      "town": "利尻富士町",
      "district": "鴛泊",
      "buraku": "湾内",
      "lat": 45.2337851,
      "lon": 141.2418753,
      "distance_from_kutsugata": 2.7507560345429334,
      "theta": 9.618771834022823,
      "theta_diff": 24.245437989442507
    },
    {
      "name": "H_2340_2417",
      "town": "利尻富士町",
      "district": "鴛泊",
      "buraku": "湾内",
      "lat": 45.2340382,
      "lon": 141.2417412,
      "distance_from_kutsugata": 2.7587258001824857,
      "theta": 9.48147499553096,
      "theta_diff": 24.108141150950644
    },
    {
      "name": "H_2339_2435",
      "town": "利尻富士町",
      "district": "鴛泊",
      "buraku": "湾内",
      "lat": 45.2339622,
      "lon": 141.2435604,
      "distance_from_kutsugata": 2.8702096936457586,
      "theta": 10.772542719007333,
      "theta_diff": 25.399208874427018
    },
    {
      "name": "H_2337_2440",
      "town": "利尻富士町",
      "district": "鴛泊",
      "buraku": "湾内",
      "lat": 45.2337844,
      "lon": 141.2440412,
      "distance_from_kutsugata": 2.890392983362532,
      "theta": 11.1433410192476,
      "theta_diff": 25.770007174667285
    },
    {
      "name": "H_2446_2262",
      "town": "利尻富士町",
      "district": "鴛泊",
      "buraku": "港町",
      "lat": 45.2446982,
      "lon": 141.2262474,
      "distance_from_kutsugata": 2.990166965252921,
      "theta": 358.6136991056869,
      "theta_diff": 13.240365261106604
    },
    {
      "name": "H_2449_2267",
      "town": "利尻富士町",
      "district": "鴛泊",
      "buraku": "港町",
      "lat": 45.244904,
      "lon": 141.2267682,
      "distance_from_kutsugata": 3.025677610744484,
      "theta": 358.9334949534344,
      "theta_diff": 13.56016110885406
    },
    {
      "name": "H_2341_2459",
      "town": "利尻富士町",
      "district": "鴛泊",
      "buraku": "湾内",
      "lat": 45.2341015,
      "lon": 141.2459467,
      "distance_from_kutsugata": 3.0346634736739873,
      "theta": 12.402865723983439,
      "theta_diff": 27.029531879403123
    },
    {
      "name": "H_2449_2271",
      "town": "利尻富士町",
      "district": "鴛泊",
      "buraku": "湾内",
      "lat": 45.2449474,
      "lon": 141.2271061,
      "distance_from_kutsugata": 3.039511773550174,
      "theta": 359.1388013454927,
      "theta_diff": 13.765467500912393
    },
    {
      "name": "H_2451_2270",
      "town": "利尻富士町",
      "district": "鴛泊",
      "buraku": "湾内",
      "lat": 45.245108,
      "lon": 141.2270471,
      "distance_from_kutsugata": 3.0545766193475616,
      "theta": 359.10522745905047,
      "theta_diff": 13.731893614470152
    },
    {
      "name": "H_2463_2219",
      "town": "利尻富士町",
      "district": "鴛泊",
      "buraku": "栄町",
      "lat": 45.2463148,
      "lon": 141.2219816,
      "distance_from_kutsugata": 3.069030807964432,
      "theta": 356.1203822972917,
      "theta_diff": 10.747048452711397
    },
    {
      "name": "H_2464_2216",
      "town": "利尻富士町",
      "district": "鴛泊",
      "buraku": "栄町",
      "lat": 45.2464662,
      "lon": 141.2216058,
      "distance_from_kutsugata": 3.079099513548587,
      "theta": 355.90748478217307,
      "theta_diff": 10.534150937592756
    },
    {
      "name": "H_2467_2209",
      "town": "利尻富士町",
      "district": "鴛泊",
      "buraku": "栄町",
      "lat": 45.2467619,
      "lon": 141.2209986,
      "distance_from_kutsugata": 3.1016542445031328,
      "theta": 355.5690181573001,
      "theta_diff": 10.195684312719777
    },
    {
      "name": "H_2448_2304",
      "town": "利尻富士町",
      "district": "鴛泊",
      "buraku": "湾内",
      "lat": 45.24477126204745,
      "lon": 141.23042285442355,
      "distance_from_kutsugata": 3.1235867985947667,
      "theta": 1.1506234207884063,
      "theta_diff": 15.77728957620809
    },
    {
      "name": "H_2477_2203",
      "town": "利尻富士町",
      "district": "鴛泊",
      "buraku": "栄町",
      "lat": 45.2477271,
      "lon": 141.2203331,
      "distance_from_kutsugata": 3.1976134691159186,
      "theta": 355.24583100990696,
      "theta_diff": 9.87249716532665
    },
    {
      "name": "H_2479_2191",
      "town": "利尻富士町",
      "district": "鴛泊",
      "buraku": "栄町",
      "lat": 45.24793,
      "lon": 141.2191086,
      "distance_from_kutsugata": 3.2048322717878643,
      "theta": 354.55527865187213,
      "theta_diff": 9.181944807291814
    },
    {
      "name": "H_2478_2195",
      "town": "利尻富士町",
      "district": "鴛泊",
      "buraku": "栄町",
      "lat": 45.2478847,
      "lon": 141.2195726,
      "distance_from_kutsugata": 3.20521270194556,
      "theta": 354.81863935455067,
      "theta_diff": 9.445305509970353
    },
    {
      "name": "H_2480_2198",
      "town": "利尻富士町",
      "district": "鴛泊",
      "buraku": "栄町",
      "lat": 45.2480376,
      "lon": 141.2198462,
      "distance_from_kutsugata": 3.2253500620690203,
      "theta": 354.987068228527,
      "theta_diff": 9.613734383946678
    },
    {
      "name": "H_2336_2570",
      "town": "利尻富士町",
      "district": "鴛泊",
      "buraku": "湾内",
      "lat": 45.2336527,
      "lon": 141.2570902,
      "distance_from_kutsugata": 3.7779266166063183,
      "theta": 19.977680113559757,
      "theta_diff": 34.60434626897944
    },
    {
      "name": "H_2414_1760",
      "town": "利尻富士町",
      "district": "鴛泊",
      "buraku": "大磯",
      "lat": 45.241472,
      "lon": 141.1760937,
      "distance_from_kutsugata": 3.8095584260586057,
      "theta": 329.68090686978854,
      "theta_diff": 15.692426974791772
    },
    {
      "name": "H_2476_1852",
      "town": "利尻富士町",
      "district": "鴛泊",
      "buraku": "本泊",
      "lat": 45.2476831,
      "lon": 141.1852532,
      "distance_from_kutsugata": 3.835884779325888,
      "theta": 336.27655084968694,
      "theta_diff": 9.096782994893374
    },
    {
      "name": "H_2455_1813",
      "town": "利尻富士町",
      "district": "鴛泊",
      "buraku": "大磯",
      "lat": 45.2455728,
      "lon": 141.1813367,
      "distance_from_kutsugata": 3.838554882901791,
      "theta": 333.6988420227414,
      "theta_diff": 11.674491821838899
    },
    {
      "name": "H_2475_1845",
      "town": "利尻富士町",
      "district": "鴛泊",
      "buraku": "本泊",
      "lat": 45.2475868,
      "lon": 141.1845035,
      "distance_from_kutsugata": 3.861099629841273,
      "theta": 335.88232621470206,
      "theta_diff": 9.491007629878254
    }
  ],
  "best_matches": [
    {
      "name": "H_2393_2280",
      "town": "利尻富士町",
      "district": "鴛泊",
      "buraku": "港町",
      "lat": 45.2393215,
      "lon": 141.2280094,
      "distance_from_kutsugata": 2.4967737016790092,
      "theta": 359.6569352977335,
      "theta_diff": 14.28360145315321
    },
    {
      "name": "H_2446_2262",
      "town": "利尻富士町",
      "district": "鴛泊",
      "buraku": "港町",
      "lat": 45.2446982,
      "lon": 141.2262474,
      "distance_from_kutsugata": 2.990166965252921,
      "theta": 358.6136991056869,
      "theta_diff": 13.240365261106604
    }
  ]
}