[
  {
    "buraku": "野中",
    "district": "鬼脇",
    "lat": 45.1021947,
    "lon": 141.247311,
    "name": "H_1021_2473",
    "town": "利尻富士町"
  },
  {
    "buraku": "野中",
    "district": "鬼脇",
    "lat": 45.1025111,
    "lon": 141.2483481,
    "name": "H_1025_2483",
    "town": "利尻富士町"
  },
  {
    "buraku": "野中",
    "district": "鬼脇",
    "lat": 45.1034294,
    "lon": 141.2485286,
    "name": "H_1034_2485",
    "town": "利尻富士町"
  },
  {
    "buraku": "野中",
    "district": "鬼脇",
    "lat": 45.1037247,
    "lon": 141.2486332,
    "name": "H_1037_2486",
    "town": "利尻富士町"
  },
  {
    "buraku": "野中",
    "district": "鬼脇",
    "lat": 45.1040639,
    "lon": 141.250253,
    "name": "H_1040_2502",
    "town": "利尻富士町"
  },
  {
    "buraku": "野中",
    "district": "鬼脇",
    "lat": 45.1048553,
    "lon": 141.2519053,
    "name": "H_1048_2519",
    "town": "利尻富士町"
  },
  {
    "buraku": "南浜",
    "district": "鬼脇",
    "lat": 45.1094479,
    "lon": 141.268727,
    "name": "H_1094_2687",
    "town": "利尻富士町"
  },
  {
    "buraku": "南浜",
    "district": "鬼脇",
    "lat": 45.1089406,
    "lon": 141.2701461,
    "name": "H_1089_2701",
    "town": "利尻富士町"
  },
  {
    "buraku": "南浜",
    "district": "鬼脇",
    "lat": 45.1098663,
    "lon": 141.2701888,
    "name": "H_1098_2701",
    "town": "利尻富士町"
  },
  {
    "buraku": "南浜",
    "district": "鬼脇",
    "lat": 45.1089222,
    "lon": 141.2721856,
    "name": "H_1089_2721",
    "town": "利尻富士町"
  },
  {
    "buraku": "南浜",
    "district": "鬼脇",
    "lat": 45.1093235,
    "lon": 141.2722929,
    "name": "H_1093_2722",
    "town": "利尻富士町"
  },
  {
    "buraku": "南浜",
    "district": "鬼脇",
    "lat": 45.1087049,
    "lon": 141.2725681,
    "name": "H_1087_2725",
    "town": "利尻富士町"
  },
  {
    "buraku": "南浜",
    "district": "鬼脇",
    "lat": 45.1103838,
    "lon": 141.2721514,
    "name": "H_1103_2721",
    "town": "利尻富士町"
  },
  {
    "buraku": "南浜",
    "district": "鬼脇",
    "lat": 45.1128726,
    "lon": 141.2736647,
    "name": "H_1128_2736",
    "town": "利尻富士町"
  },
  {
    "buraku": "南浜",
    "district": "鬼脇",
    "lat": 45.1109264,
    "lon": 141.2745775,
    "name": "H_1109_2745",
    "town": "利尻富士町"
  },
  {
    "buraku": "南浜",
    "district": "鬼脇",
    "lat": 45.1123653,
    "lon": 141.2744747,
    "name": "H_1123_2744",
    "town": "利尻富士町"
  },
  {
    "buraku": "南浜",
    "district": "鬼脇",
    "lat": 45.1110778,
    "lon": 141.2758374,
    "name": "H_1110_2758",
    "town": "利尻富士町"
  },
  {
    "buraku": "南浜",
    "district": "鬼脇",
    "lat": 45.1109604,
    "lon": 141.276001,
    "name": "H_1109_2760",
    "town": "利尻富士町"
  },
  {
    "buraku": "南浜",
    "district": "鬼脇",
    "lat": 45.1120335,
    "lon": 141.276079,
    "name": "H_1120_2760",
    "town": "利尻富士町"
  },
  {
    "buraku": "南浜",
    "district": "鬼脇",
    "lat": 45.1110214,
    "lon": 141.2765827,
    "name": "H_1110_2765",
    "town": "利尻富士町"
  },
  {
    "buraku": "沼浦",
    "district": "鬼脇",
    "lat": 45.1132552,
    "lon": 141.28455,
    "name": "H_1132_2845",
    "town": "利尻富士町"
  },
  {
    "buraku": "沼浦",
    "district": "鬼脇",
    "lat": 45.1135576,
    "lon": 141.2852805,
    "name": "H_1135_2852",
    "town": "利尻富士町"
  },
  {
    "buraku": "沼浦",
    "district": "鬼脇",
    "lat": 45.1131534,
    "lon": 141.2857969,
    "name": "H_1131_2857",
    "town": "利尻富士町"
  },
  {
    "buraku": "沼浦",
    "district": "鬼脇",
    "lat": 45.1127594,
    "lon": 141.2865226,
    "name": "H_1127_2865",
    "town": "利尻富士町"
  },
  {
    "buraku": "沼浦",
    "district": "鬼脇",
    "lat": 45.1142836,
    "lon": 141.2856837,
    "name": "H_1142_2856",
    "town": "利尻富士町"
  },
  {
    "buraku": "沼浦",
    "district": "鬼脇",
    "lat": 45.1144161,
    "lon": 141.2856904,
    "name": "H_1144_2856",
    "town": "利尻富士町"
  },
  {
    "buraku": "沼浦",
    "district": "鬼脇",
    "lat": 45.1150648,
    "lon": 141.2859724,
    "name": "H_1150_2859",
    "town": "利尻富士町"
  },
  {
    "buraku": "沼浦",
    "district": "鬼脇",
    "lat": 45.1152692,
    "lon": 141.2861105,
    "name": "H_1152_2861",
    "town": "利尻富士町"
  },
  {
    "buraku": "沼浦",
    "district": "鬼脇",
    "lat": 45.1158224,
    "lon": 141.286849,
    "name": "H_1158_2868",
    "town": "利尻富士町"
  },
  {
    "buraku": "金崎",
    "district": "鬼脇",
    "lat": 45.1278291,
    "lon": 141.3025525,
    "name": "H_1278_3025",
    "town": "利尻富士町"
  },
  {
    "buraku": "金崎",
    "district": "鬼脇",
    "lat": 45.1274206,
    "lon": 141.3032061,
    "name": "H_1274_3032",
    "town": "利尻富士町"
  },
  {
    "buraku": "金崎",
    "district": "鬼脇",
    "lat": 45.1285684,
    "lon": 141.3022085,
    "name": "H_1285_3022",
    "town": "利尻富士町"
  },
  {
    "buraku": "金崎",
    "district": "鬼脇",
    "lat": 45.1302484,
    "lon": 141.3047225,
    "name": "H_1302_3047",
    "town": "利尻富士町"
  },
  {
    "buraku": "金崎",
    "district": "鬼脇",
    "lat": 45.1304074,
    "lon": 141.3063238,
    "name": "H_1304_3063",
    "town": "利尻富士町"
  },
  {
    "buraku": "鬼脇",
    "district": "鬼脇",
    "lat": 45.1338215,
    "lon": 141.3064824,
    "name": "H_1338_3064",
    "town": "利尻富士町"
  },
  {
    "buraku": "鬼脇",
    "district": "鬼脇",
    "lat": 45.1351708,
    "lon": 141.3093172,
    "name": "H_1351_3093",
    "town": "利尻富士町"
  },
  {
    "buraku": "鬼脇",
    "district": "鬼脇",
    "lat": 45.1361111,
    "lon": 141.3088355,
    "name": "H_1361_3088",
    "town": "利尻富士町"
  },
  {
    "buraku": "鬼脇",
    "district": "鬼脇",
    "lat": 45.1367493,
    "lon": 141.3096145,
    "name": "H_1367_3096",
    "town": "利尻富士町"
  },
  {
    "buraku": "鬼脇",
    "district": "鬼脇",
    "lat": 45.137052,
    "lon": 141.3094106,
    "name": "H_1370_3094",
    "town": "利尻富士町"
  },
  {
    "buraku": "鬼脇",
    "district": "鬼脇",
    "lat": 45.1359889,
    "lon": 141.3112589,
    "name": "H_1359_3112",
    "town": "利尻富士町"
  },
  {
    "buraku": "清川",
    "district": "鬼脇",
    "lat": 45.1442677,
    "lon": 141.3184243,
    "name": "H_1442_3184",
    "town": "利尻富士町"
  },
  {
    "buraku": "清川",
    "district": "鬼脇",
    "lat": 45.1451173,
    "lon": 141.3204306,
    "name": "H_1451_3204",
    "town": "利尻富士町"
  },
  {
    "buraku": "二石",
    "district": "鬼脇",
    "lat": 45.1524539,
    "lon": 141.3268048,
    "name": "H_1524_3268",
    "town": "利尻富士町"
  },
  {
    "buraku": "二石",
    "district": "鬼脇",
    "lat": 45.1540826,
    "lon": 141.328278,
    "name": "H_1540_3282",
    "town": "利尻富士町"
  },
  {
    "buraku": "二石",
    "district": "鬼脇",
    "lat": 45.1567282,
    "lon": 141.3281503,
    "name": "H_1567_3281",
    "town": "利尻富士町"
  },
  {
    "buraku": "石崎",
    "district": "鬼脇",
    "lat": 45.1742397,
    "lon": 141.3256546,
    "name": "H_1742_3256",
    "town": "利尻富士町"
  },
  {
    "buraku": "石崎",
    "district": "鬼脇",
    "lat": 45.1753987,
    "lon": 141.3251336,
    "name": "H_1753_3251",
    "town": "利尻富士町"
  },
  {
    "buraku": "石崎",
    "district": "鬼脇",
    "lat": 45.1778217,
    "lon": 141.324457,
    "name": "H_1778_3244",
    "town": "利尻富士町"
  },
  {
    "buraku": "旭浜",
    "district": "鬼脇",
    "lat": 45.1893588,
    "lon": 141.3209405,
    "name": "H_1893_3209",
    "town": "利尻富士町"
  },
  {
    "buraku": "旭浜",
    "district": "鬼脇",
    "lat": 45.1940268,
    "lon": 141.317736,
    "name": "H_1940_3177",
    "town": "利尻富士町"
  },
  {
    "buraku": "旭浜",
    "district": "鬼脇",
    "lat": 45.1946346,
    "lon": 141.3173819,
    "name": "H_1946_3173",
    "town": "利尻富士町"
  },
  {
    "buraku": "旭浜",
    "district": "鬼脇",
    "lat": 45.1947542,
    "lon": 141.3177935,
    "name": "H_1947_3177",
    "town": "利尻富士町"
  },
  {
    "buraku": "旭浜",
    "district": "鬼脇",
    "lat": 45.1950056,
    "lon": 141.3176728,
    "name": "H_1950_3176",
    "town": "利尻富士町"
  },
  {
    "buraku": "旭浜",
    "district": "鬼脇",
    "lat": 45.1953685,
    "lon": 141.3176299,
    "name": "H_1953_3176",
    "town": "利尻富士町"
  },
  {
    "buraku": "鰊泊",
    "district": "鬼脇",
    "lat": 45.1980472,
    "lon": 141.3109215,
    "name": "H_1980_3109",
    "town": "利尻富士町"
  },
  {
    "buraku": "鰊泊",
    "district": "鬼脇",
    "lat": 45.2031365,
    "lon": 141.3110767,
    "name": "H_2031_3110",
    "town": "利尻富士町"
  },
  {
    "buraku": "鰊泊",
    "district": "鬼脇",
    "lat": 45.2040524,
    "lon": 141.3104559,
    "name": "H_2040_3104",
    "town": "利尻富士町"
  },
  {
    "buraku": "鰊泊",
    "district": "鬼脇",
    "lat": 45.2042659,
    "lon": 141.3110326,
    "name": "H_2042_3110",
    "town": "利尻富士町"
  },
  {
    "buraku": "鰊泊",
    "district": "鬼脇",
    "lat": 45.2079224,
    "lon": 141.3079776,
    "name": "H_2079_3079",
    "town": "利尻富士町"
  },
  {
    "buraku": "雄忠志内",
    "district": "鴛泊",
    "lat": 45.2194176,
    "lon": 141.2962013,
    "name": "H_2194_2962",
    "town": "利尻富士町"
  },
  {
    "buraku": "雄忠志内",
    "district": "鴛泊",
    "lat": 45.2193194,
    "lon": 141.2959867,
    "name": "H_2193_2959",
    "town": "利尻富士町"
  },
  {
    "buraku": "雄忠志内",
    "district": "鴛泊",
    "lat": 45.2201345,
    "lon": 141.2935349,
    "name": "H_2201_2935",
    "town": "利尻富士町"
  },
  {
    "buraku": "雄忠志内",
    "district": "鴛泊",
    "lat": 45.2204618,
    "lon": 141.2938303,
    "name": "H_2204_2938",
    "town": "利尻富士町"
  },
  {
    "buraku": "雄忠志内",
    "district": "鴛泊",
    "lat": 45.219963,
    "lon": 141.2928647,
    "name": "H_2199_2928",
    "town": "利尻富士町"
  },
  {
    "buraku": "雄忠志内",
    "district": "鴛泊",
    "lat": 45.2210151,
    "lon": 141.2904494,
    "name": "H_2210_2904",
    "town": "利尻富士町"
  },
  {
    "buraku": "雄忠志内",
    "district": "鴛泊",
    "lat": 45.2210388,
    "lon": 141.2890304,
    "name": "H_2210_2890",
    "town": "利尻富士町"
  },
  {
    "buraku": "雄忠志内",
    "district": "鴛泊",
    "lat": 45.221457,
    "lon": 141.2893312,
    "name": "H_2214_2893",
    "town": "利尻富士町"
  },
  {
    "buraku": "雄忠志内",
    "district": "鴛泊",
    "lat": 45.2212342,
    "lon": 141.2878744,
    "name": "H_2212_2878",
    "town": "利尻富士町"
  },
  {
    "buraku": "雄忠志内",
    "district": "鴛泊",
    "lat": 45.2219079,
    "lon": 141.2868433,
    "name": "H_2219_2868",
    "town": "利尻富士町"
  },
  {
    "buraku": "雄忠志内",
    "district": "鴛泊",
    "lat": 45.2220439,
    "lon": 141.286221,
    "name": "H_2220_2862",
    "town": "利尻富士町"
  },
  {
    "buraku": "雄忠志内",
    "district": "鴛泊",
    "lat": 45.2215376,
    "lon": 141.2856577,
    "name": "H_2215_2856",
    "town": "利尻富士町"
  },
  {
    "buraku": "雄忠志内",
    "district": "鴛泊",
    "lat": 45.2218248,
    "lon": 141.2852661,
    "name": "H_2218_2852",
    "town": "利尻富士町"
  },
  {
    "buraku": "雄忠志内",
    "district": "鴛泊",
    "lat": 45.2221875,
    "lon": 141.2854324,
    "name": "H_2221_2854",
    "town": "利尻富士町"
  },
  {
    "buraku": "雄忠志内",
    "district": "鴛泊",
    "lat": 45.2224066,
    "lon": 141.2845634,
    "name": "H_2224_2845",
    "town": "利尻富士町"
  },
  {
    "buraku": "雄忠志内",
    "district": "鴛泊",
    "lat": 45.2227795,
    "lon": 141.2836497,
    "name": "H_2227_2836",
    "town": "利尻富士町"
  },
  {
    "buraku": "雄忠志内",
    "district": "鴛泊",
    "lat": 45.2227253,
    "lon": 141.2825291,
    "name": "H_2227_2825",
    "town": "利尻富士町"
  },
  {
    "buraku": "雄忠志内",
    "district": "鴛泊",
    "lat": 45.2239435,
    "lon": 141.2811209,
    "name": "H_2239_2811",
    "town": "利尻富士町"
  },
  {
    "buraku": "雄忠志内",
    "district": "鴛泊",
    "lat": 45.2237319,
    "lon": 141.2808312,
    "name": "H_2237_2808",
    "town": "利尻富士町"
  },
  {
    "buraku": "雄忠志内",
    "district": "鴛泊",
    "lat": 45.2247828,
    "lon": 141.2802683,
    "name": "H_2247_2802",
    "town": "利尻富士町"
  },
  {
    "buraku": "雄忠志内",
    "district": "鴛泊",
    "lat": 45.2256531,
    "lon": 141.2798945,
    "name": "H_2256_2798",
    "town": "利尻富士町"
  },
  {
    "buraku": "野塚",
    "district": "鴛泊",
    "lat": 45.2285744,
    "lon": 141.2795595,
    "name": "H_2285_2795",
    "town": "利尻富士町"
  },
  {
    "buraku": "野塚",
    "district": "鴛泊",
    "lat": 45.2291147,
    "lon": 141.2795005,
    "name": "H_2291_2795",
    "town": "利尻富士町"
  },
  {
    "buraku": "野塚",
    "district": "鴛泊",
    "lat": 45.2286084,
    "lon": 141.2789346,
    "name": "H_2286_2789",
    "town": "利尻富士町"
  },
  {
    "buraku": "野塚",
    "district": "鴛泊",
    "lat": 45.2289031,
    "lon": 141.2791304,
    "name": "H_2289_2791",
    "town": "利尻富士町"
  },
  {
    "buraku": "野塚",
    "district": "鴛泊",
    "lat": 45.2293262,
    "lon": 141.2788997,
    "name": "H_2293_2788",
    "town": "利尻富士町"
  },
  {
    "buraku": "野塚",
    "district": "鴛泊",
    "lat": 45.2290731,
    "lon": 141.2784035,
    "name": "H_2290_2784",
    "town": "利尻富士町"
  },
  {
    "buraku": "野塚",
    "district": "鴛泊",
    "lat": 45.2303186,
    "lon": 141.2784865,
    "name": "H_2303_2784",
    "town": "利尻富士町"
  },
  {
    "buraku": "野塚",
    "district": "鴛泊",
    "lat": 45.2310321,
    "lon": 141.2788517,
    "name": "H_2310_2788",
    "town": "利尻富士町"
  },
  {
    "buraku": "野塚",
    "district": "鴛泊",
    "lat": 45.2306511,
    "lon": 141.2783337,
    "name": "H_2306_2783",
    "town": "利尻富士町"
  },
  {
    "buraku": "野塚",
    "district": "鴛泊",
    "lat": 45.2310828,
    "lon": 141.2782263,
    "name": "H_2310_2782",
    "town": "利尻富士町"
  },
  {
    "buraku": "野塚",
    "district": "鴛泊",
    "lat": 45.230104,
    "lon": 141.27726,
    "name": "H_2301_2772",
    "town": "利尻富士町"
  },
  {
    "buraku": "野塚",
    "district": "鴛泊",
    "lat": 45.2306823,
    "lon": 141.2774055,
    "name": "H_2306_2774",
    "town": "利尻富士町"
  },
  {
    "buraku": "野塚",
    "district": "鴛泊",
    "lat": 45.2324163,
    "lon": 141.276199,
    "name": "H_2324_2761",
    "town": "利尻富士町"
  },
  {
    "buraku": "野塚",
    "district": "鴛泊",
    "lat": 45.2335589,
    "lon": 141.2755405,
    "name": "H_2335_2755",
    "town": "利尻富士町"
  },
  {
    "buraku": "野塚",
    "district": "鴛泊",
    "lat": 45.2328752,
    "lon": 141.2750577,
    "name": "H_2328_2750",
    "town": "利尻富士町"
  },
  {
    "buraku": "野塚",
    "district": "鴛泊",
    "lat": 45.2295769,
    "lon": 141.2716298,
    "name": "H_2295_2716",
    "town": "利尻富士町"
  },
  {
    "buraku": "野塚",
    "district": "鴛泊",
    "lat": 45.2336033,
    "lon": 141.273556,
    "name": "H_2336_2735",
    "town": "利尻富士町"
  },
  {
    "buraku": "野塚",
    "district": "鴛泊",
    "lat": 45.2333984,
    "lon": 141.2728951,
    "name": "H_2333_2728",
    "town": "利尻富士町"
  },
  {
    "buraku": "野塚",
    "district": "鴛泊",
    "lat": 45.2334664,
    "lon": 141.2721763,
    "name": "H_2334_2721",
    "town": "利尻富士町"
  },
  {
    "buraku": "野塚",
    "district": "鴛泊",
    "lat": 45.2339094,
    "lon": 141.2724089,
    "name": "H_2339_2724",
    "town": "利尻富士町"
  },
  {
    "buraku": "野塚",
    "district": "鴛泊",
    "lat": 45.2338328,
    "lon": 141.2721387,
    "name": "H_2338_2721",
    "town": "利尻富士町"
  },
  {
    "buraku": "野塚",
    "district": "鴛泊",
    "lat": 45.2336399,
    "lon": 141.2709148,
    "name": "H_2336_2709",
    "town": "利尻富士町"
  },
  {
    "buraku": "野塚",
    "district": "鴛泊",
    "lat": 45.2304117,
    "lon": 141.2689928,
    "name": "H_2304_2689",
    "town": "利尻富士町"
  },
  {
    "buraku": "野塚",
    "district": "鴛泊",
    "lat": 45.2321359,
    "lon": 141.2696453,
    "name": "H_2321_2696",
    "town": "利尻富士町"
  },
  {
    "buraku": "野塚",
    "district": "鴛泊",
    "lat": 45.2335381,
    "lon": 141.2702816,
    "name": "H_2335_2702",
    "town": "利尻富士町"
  },
  {
    "buraku": "野塚",
    "district": "鴛泊",
    "lat": 45.2343497,
    "lon": 141.2707242,
    "name": "H_2343_2707",
    "town": "利尻富士町"
  },
  {
    "buraku": "野塚",
    "district": "鴛泊",
    "lat": 45.2312126,
    "lon": 141.2687881,
    "name": "H_2312_2687",
    "town": "利尻富士町"
  },
  {
    "buraku": "野塚",
    "district": "鴛泊",
    "lat": 45.2333266,
    "lon": 141.2698847,
    "name": "H_2333_2698",
    "town": "利尻富士町"
  },
  {
    "buraku": "野塚",
    "district": "鴛泊",
    "lat": 45.2335683,
    "lon": 141.2699598,
    "name": "H_2335_2699",
    "town": "利尻富士町"
  },
  {
    "buraku": "野塚",
    "district": "鴛泊",
    "lat": 45.2341459,
    "lon": 141.2689975,
    "name": "H_2341_2689",
    "town": "利尻富士町"
  },
  {
    "buraku": "野塚",
    "district": "鴛泊",
    "lat": 45.2349392,
    "lon": 141.2692443,
    "name": "H_2349_2692",
    "town": "利尻富士町"
  },
  {
    "buraku": "野塚",
    "district": "鴛泊",
    "lat": 45.2320281,
    "lon": 141.2676805,
    "name": "H_2320_2676",
    "town": "利尻富士町"
  },
  {
    "buraku": "野塚",
    "district": "鴛泊",
    "lat": 45.2345161,
    "lon": 141.2687186,
    "name": "H_2345_2687",
    "town": "利尻富士町"
  },
  {
    "buraku": "野塚",
    "district": "鴛泊",
    "lat": 45.2311673,
    "lon": 141.2669597,
    "name": "H_2311_2669",
    "town": "利尻富士町"
  },
  {
    "buraku": "野塚",
    "district": "鴛泊",
    "lat": 45.2334409,
    "lon": 141.2676698,
    "name": "H_2334_2676",
    "town": "利尻富士町"
  },
  {
    "buraku": "湾内",
    "district": "鴛泊",
    "lat": 45.230855,
    "lon": 141.2619475,
    "name": "H_2308_2619",
    "town": "利尻富士町"
  },
  {
    "buraku": "湾内",
    "district": "鴛泊",
    "lat": 45.2336527,
    "lon": 141.2570902,
    "name": "H_2336_2570",
    "town": "利尻富士町"
  },
  {
    "buraku": "湾内",
    "district": "鴛泊",
    "lat": 45.2341015,
    "lon": 141.2459467,
    "name": "H_2341_2459",
    "town": "利尻富士町"
  },
  {
    "buraku": "湾内",
    "district": "鴛泊",
    "lat": 45.2337844,
    "lon": 141.2440412,
    "name": "H_2337_2440",
    "town": "利尻富士町"
  },
  {
    "buraku": "湾内",
    "district": "鴛泊",
    "lat": 45.2339622,
    "lon": 141.2435604,
    "name": "H_2339_2435",
    "town": "利尻富士町"
  },
  {
    "buraku": "湾内",
    "district": "鴛泊",
    "lat": 45.2337851,
    "lon": 141.2418753,
    "name": "H_2337_2418",
    "town": "利尻富士町"
  },
  {
    "buraku": "湾内",
    "district": "鴛泊",
    "lat": 45.2340382,
    "lon": 141.2417412,
    "name": "H_2340_2417",
    "town": "利尻富士町"
  },
  {
    "buraku": "湾内",
    "district": "鴛泊",
    "lat": 45.2343285,
    "lon": 141.2407067,
    "name": "H_2343_2407",
    "town": "利尻富士町"
  },
  {
    "buraku": "湾内",
    "district": "鴛泊",
    "lat": 45.2344229,
    "lon": 141.2393335,
    "name": "H_2344_2393",
    "town": "利尻富士町"
  },
  {
    "buraku": "湾内",
    "district": "鴛泊",
    "lat": 45.2342601,
    "lon": 141.2390011,
    "name": "H_2342_2390",
    "town": "利尻富士町"
  },
  {
    "buraku": "湾内",
    "district": "鴛泊",
    "lat": 45.2339941,
    "lon": 141.238894,
    "name": "H_2339_2388",
    "town": "利尻富士町"
  },
  {
    "buraku": "湾内",
    "district": "鴛泊",
    "lat": 45.2339095,
    "lon": 141.2382436,
    "name": "H_2339_2382",
    "town": "利尻富士町"
  },
  {
    "buraku": "湾内",
    "district": "鴛泊",
    "lat": 45.2331577,
    "lon": 141.2380102,
    "name": "H_2331_2380",
    "town": "利尻富士町"
  },
  {
    "buraku": "湾内",
    "district": "鴛泊",
    "lat": 45.2337791,
    "lon": 141.2369709,
    "name": "H_2337_2369",
    "town": "利尻富士町"
  },
  {
    "buraku": "湾内",
    "district": "鴛泊",
    "lat": 45.24477126204745,
    "lon": 141.23042285442355,
    "name": "H_2448_2304",
    "town": "利尻富士町"
  },
  {
    "buraku": "湾内",
    "district": "鴛泊",
    "lat": 45.2449474,
    "lon": 141.2271061,
    "name": "H_2449_2271",
    "town": "利尻富士町"
  },
  {
    "buraku": "湾内",
    "district": "鴛泊",
    "lat": 45.245108,
    "lon": 141.2270471,
    "name": "H_2451_2270",
    "town": "利尻富士町"
  },
  {
    "buraku": "港町",
    "district": "鴛泊",
    "lat": 45.244904,
    "lon": 141.2267682,
    "name": "H_2449_2267",
    "town": "利尻富士町"
  },
  {
    "buraku": "港町",
    "district": "鴛泊",
    "lat": 45.2393215,
    "lon": 141.2280094,
    "name": "H_2393_2280",
    "town": "利尻富士町"
  },
  {
    "buraku": "港町",
    "district": "鴛泊",
    "lat": 45.2446982,
    "lon": 141.2262474,
    "name": "H_2446_2262",
    "town": "利尻富士町"
  },
  {
    "buraku": "栄町",
    "district": "鴛泊",
    "lat": 45.2463148,
    "lon": 141.2219816,
    "name": "H_2463_2219",
    "town": "利尻富士町"
  },
  {
    "buraku": "栄町",
    "district": "鴛泊",
    "lat": 45.2464662,
    "lon": 141.2216058,
    "name": "H_2464_2216",
    "town": "利尻富士町"
  },
  {
    "buraku": "栄町",
    "district": "鴛泊",
    "lat": 45.2467619,
    "lon": 141.2209986,
    "name": "H_2467_2209",
    "town": "利尻富士町"
  },
  {
    "buraku": "栄町",
    "district": "鴛泊",
    "lat": 45.2477271,
    "lon": 141.2203331,
    "name": "H_2477_2203",
    "town": "利尻富士町"
  },
  {
    "buraku": "栄町",
    "district": "鴛泊",
    "lat": 45.2480376,
    "lon": 141.2198462,
    "name": "H_2480_2198",
    "town": "利尻富士町"
  },
  {
    "buraku": "栄町",
    "district": "鴛泊",
    "lat": 45.2478847,
    "lon": 141.2195726,
    "name": "H_2478_2195",
    "town": "利尻富士町"
  },
  {
    "buraku": "栄町",
    "district": "鴛泊",
    "lat": 45.24793,
    "lon": 141.2191086,
    "name": "H_2479_2191",
    "town": "利尻富士町"
  },
  {
    "buraku": "富士岬",
    "district": "鴛泊",
    "lat": 45.2579463,
    "lon": 141.1966851,
    "name": "H_2579_1966",
    "town": "利尻富士町"
  },
  {
    "buraku": "富士岬",
    "district": "鴛泊",
    "lat": 45.257528,
    "lon": 141.1968466,
    "name": "H_2575_1968",
    "town": "利尻富士町"
  },
  {
    "buraku": "富士岬",
    "district": "鴛泊",
    "lat": 45.2579451,
    "lon": 141.195735,
    "name": "H_2579_1957",
    "town": "利尻富士町"
  },
  {
    "buraku": "富士岬",
    "district": "鴛泊",
    "lat": 45.258163,
    "lon": 141.1945494,
    "name": "H_2581_1945",
    "town": "利尻富士町"
  },
  {
    "buraku": "富士岬",
    "district": "鴛泊",
    "lat": 45.2581336,
    "lon": 141.1934075,
    "name": "H_2581_1934",
    "town": "利尻富士町"
  },
  {
    "buraku": "富士岬",
    "district": "鴛泊",
    "lat": 45.2579048,
    "lon": 141.1933233,
    "name": "H_2579_1933",
    "town": "利尻富士町"
  },
  {
    "buraku": "本泊",
    "district": "鴛泊",
    "lat": 45.2575895,
    "lon": 141.1930146,
    "name": "H_2575_1930",
    "town": "利尻富士町"
  },
  {
    "buraku": "本泊",
    "district": "鴛泊",
    "lat": 45.2574384,
    "lon": 141.1919687,
    "name": "H_2574_1919",
    "town": "利尻富士町"
  },
  {
    "buraku": "本泊",
    "district": "鴛泊",
    "lat": 45.2565726,
    "lon": 141.1899583,
    "name": "H_2565_1899",
    "town": "利尻富士町"
  },
  {
    "buraku": "本泊",
    "district": "鴛泊",
    "lat": 45.2565726,
    "lon": 141.1893602,
    "name": "H_2565_1893",
    "town": "利尻富士町"
  },
  {
    "buraku": "本泊",
    "district": "鴛泊",
    "lat": 45.2563989,
    "lon": 141.1893575,
    "name": "H_2563_1893",
    "town": "利尻富士町"
  },
  {
    "buraku": "本泊",
    "district": "鴛泊",
    "lat": 45.2512927,
    "lon": 141.186103,
    "name": "H_2512_1861",
    "town": "利尻富士町"
  },
  {
    "buraku": "本泊",
    "district": "鴛泊",
    "lat": 45.2507977,
    "lon": 141.1861938,
    "name": "H_2507_1861",
    "town": "利尻富士町"
  },
  {
    "buraku": "本泊",
    "district": "鴛泊",
    "lat": 45.2517003,
    "lon": 141.1848425,
    "name": "H_2517_1848",
    "town": "利尻富士町"
  },
  {
    "buraku": "本泊",
    "district": "鴛泊",
    "lat": 45.2494955,
    "lon": 141.1848312,
    "name": "H_2494_1848",
    "town": "利尻富士町"
  },
  {
    "buraku": "本泊",
    "district": "鴛泊",
    "lat": 45.2516839,
    "lon": 141.1829666,
    "name": "H_2516_1829",
    "town": "利尻富士町"
  },
  {
    "buraku": "本泊",
    "district": "鴛泊",
    "lat": 45.2476831,
    "lon": 141.1852532,
    "name": "H_2476_1852",
    "town": "利尻富士町"
  },
  {
    "buraku": "本泊",
    "district": "鴛泊",
    "lat": 45.2475868,
    "lon": 141.1845035,
    "name": "H_2475_1845",
    "town": "利尻富士町"
  },
  {
    "buraku": "大磯",
    "district": "鴛泊",
    "lat": 45.2466719,
    "lon": 141.1826188,
    "name": "H_2466_1826",
    "town": "利尻富士町"
  },
  {
    "buraku": "大磯",
    "district": "鴛泊",
    "lat": 45.2455728,
    "lon": 141.1813367,
    "name": "H_2455_1813",
    "town": "利尻富士町"
  },
  {
    "buraku": "大磯",
    "district": "鴛泊",
    "lat": 45.2462307,
    "lon": 141.17855,
    "name": "H_2462_1785",
    "town": "利尻富士町"
  },
  {
    "buraku": "大磯",
    "district": "鴛泊",
    "lat": 45.2455802,
    "lon": 141.1786554,
    "name": "H_2455_1786",
    "town": "利尻富士町"
  },
  {
    "buraku": "大磯",
    "district": "鴛泊",
    "lat": 45.2449797,
    "lon": 141.1787923,
    "name": "H_2449_1787",
    "town": "利尻富士町"
  },
  {
    "buraku": "大磯",
    "district": "鴛泊",
    "lat": 45.2468489,
    "lon": 141.176613,
    "name": "H_2468_1766",
    "town": "利尻富士町"
  },
  {
    "buraku": "大磯",
    "district": "鴛泊",
    "lat": 45.2454745,
    "lon": 141.1779728,
    "name": "H_2454_1779",
    "town": "利尻富士町"
  },
  {
    "buraku": "大磯",
    "district": "鴛泊",
    "lat": 45.2446706,
    "lon": 141.1774097,
    "name": "H_2446_1774",
    "town": "利尻富士町"
  },
  {
    "buraku": "大磯",
    "district": "鴛泊",
    "lat": 45.2439473,
    "lon": 141.1772333,
    "name": "H_2439_1772",
    "town": "利尻富士町"
  },
  {
    "buraku": "大磯",
    "district": "鴛泊",
    "lat": 45.2434053,
    "lon": 141.1764709,
    "name": "H_2434_1764",
    "town": "利尻富士町"
  },
  {
    "buraku": "大磯",
    "district": "鴛泊",
    "lat": 45.2426844,
    "lon": 141.1759649,
    "name": "H_2426_1759",
    "town": "利尻富士町"
  },
  {
    "buraku": "大磯",
    "district": "鴛泊",
    "lat": 45.241472,
    "lon": 141.1760937,
    "name": "H_2414_1760",
    "town": "利尻富士町"
  },
  {
    "buraku": "大磯",
    "district": "鴛泊",
    "lat": 45.242235,
    "lon": 141.174656,
    "name": "H_2422_1746",
    "town": "利尻富士町"
  },
  {
    "buraku": "大磯",
    "district": "鴛泊",
    "lat": 45.2426801,
    "lon": 141.1741546,
    "name": "H_2426_1741",
    "town": "利尻富士町"
  },
  {
    "buraku": "大磯",
    "district": "鴛泊",
    "lat": 45.2297761,
    "lon": 141.1543565,
    "name": "H_2297_1543",
    "town": "利尻富士町"
  },
  {
    "buraku": "大磯",
    "district": "鴛泊",
    "lat": 45.229217,
    "lon": 141.1551159,
    "name": "H_2292_1551",
    "town": "利尻富士町"
  },
  {
    "buraku": "栄浜",
    "district": "沓形",
    "lat": 45.2183318,
    "lon": 141.1381607,
    "name": "H_2183_1381",
    "town": "利尻町"
  },
  {
    "buraku": "栄浜",
    "district": "沓形",
    "lat": 45.2182693,
    "lon": 141.1377479,
    "name": "H_2182_1377",
    "town": "利尻町"
  },
  {
    "buraku": "栄浜",
    "district": "沓形",
    "lat": 45.2176465,
    "lon": 141.1383282,
    "name": "H_2176_1383",
    "town": "利尻町"
  },
  {
    "buraku": "栄浜",
    "district": "沓形",
    "lat": 45.2162989,
    "lon": 141.1369268,
    "name": "H_2162_1369",
    "town": "利尻町"
  },
  {
    "buraku": "栄浜",
    "district": "沓形",
    "lat": 45.2153768,
    "lon": 141.137775,
    "name": "H_2153_1377",
    "town": "利尻町"
  },
  {
    "buraku": "栄浜",
    "district": "沓形",
    "lat": 45.215014,
    "lon": 141.1362997,
    "name": "H_2150_1362",
    "town": "利尻町"
  },
  {
    "buraku": "栄浜",
    "district": "沓形",
    "lat": 45.2148553,
    "lon": 141.1356077,
    "name": "H_2148_1356",
    "town": "利尻町"
  },
  {
    "buraku": "栄浜",
    "district": "沓形",
    "lat": 45.2139627,
    "lon": 141.1335752,
    "name": "H_2139_1335",
    "town": "利尻町"
  },
  {
    "buraku": "新湊",
    "district": "沓形",
    "lat": 45.2088707,
    "lon": 141.1443995,
    "name": "H_2088_1443",
    "town": "利尻町"
  },
  {
    "buraku": "新湊",
    "district": "沓形",
    "lat": 45.2110922,
    "lon": 141.1346602,
    "name": "H_2110_1346",
    "town": "利尻町"
  },
  {
    "buraku": "新湊",
    "district": "沓形",
    "lat": 45.208048,
    "lon": 141.1451738,
    "name": "H_2080_1451",
    "town": "利尻町"
  },
  {
    "buraku": "新湊",
    "district": "沓形",
    "lat": 45.2095628,
    "lon": 141.1370219,
    "name": "H_2095_1370",
    "town": "利尻町"
  },
  {
    "buraku": "新湊",
    "district": "沓形",
    "lat": 45.2095666,
    "lon": 141.1365163,
    "name": "H_2095_1365",
    "town": "利尻町"
  },
  {
    "buraku": "新湊",
    "district": "沓形",
    "lat": 45.2091917,
    "lon": 141.1377542,
    "name": "H_2091_1377",
    "town": "利尻町"
  },
  {
    "buraku": "新湊",
    "district": "沓形",
    "lat": 45.2073413,
    "lon": 141.1446213,
    "name": "H_2073_1446",
    "town": "利尻町"
  },
  {
    "buraku": "新湊",
    "district": "沓形",
    "lat": 45.2089394,
    "lon": 141.1368919,
    "name": "H_2089_1368",
    "town": "利尻町"
  },
  {
    "buraku": "新湊",
    "district": "沓形",
    "lat": 45.2064953,
    "lon": 141.1420567,
    "name": "H_2064_1420",
    "town": "利尻町"
  },
  {
    "buraku": "新湊",
    "district": "沓形",
    "lat": 45.2077046,
    "lon": 141.1364899,
    "name": "H_2077_1364",
    "town": "利尻町"
  },
  {
    "buraku": "新湊",
    "district": "沓形",
    "lat": 45.2065728,
    "lon": 141.137565,
    "name": "H_2065_1375",
    "town": "利尻町"
  },
  {
    "buraku": "新湊",
    "district": "沓形",
    "lat": 45.2065164,
    "lon": 141.1369002,
    "name": "H_2065_1369",
    "town": "利尻町"
  },
  {
    "buraku": "新湊",
    "district": "沓形",
    "lat": 45.2052096,
    "lon": 141.1384087,
    "name": "H_2052_1384",
    "town": "利尻町"
  },
  {
    "buraku": "新湊",
    "district": "沓形",
    "lat": 45.2030471,
    "lon": 141.1392327,
    "name": "H_2030_1392",
    "town": "利尻町"
  },
  {
    "buraku": "新湊",
    "district": "沓形",
    "lat": 45.2020959,
    "lon": 141.140491,
    "name": "H_2020_1404",
    "town": "利尻町"
  },
  {
    "buraku": "新湊",
    "district": "沓形",
    "lat": 45.201169,
    "lon": 141.141782,
    "name": "H_2011_1417",
    "town": "利尻町"
  },
  {
    "buraku": "種富町",
    "district": "沓形",
    "lat": 45.1998289,
    "lon": 141.1383242,
    "name": "H_1998_1383",
    "town": "利尻町"
  },
  {
    "buraku": "富野・日出町・緑町・本町・富士見町",
    "district": "沓形",
    "lat": 45.1883009,
    "lon": 141.1394494,
    "name": "H_1883_1394",
    "town": "利尻町"
  },
  {
    "buraku": "富野・日出町・緑町・本町・富士見町",
    "district": "沓形",
    "lat": 45.1885151,
    "lon": 141.1351124,
    "name": "H_1885_1351",
    "town": "利尻町"
  },
  {
    "buraku": "富野・日出町・緑町・本町・富士見町",
    "district": "沓形",
    "lat": 45.1857184,
    "lon": 141.131719,
    "name": "H_1857_1317",
    "town": "利尻町"
  },
  {
    "buraku": "富野・日出町・緑町・本町・富士見町",
    "district": "沓形",
    "lat": 45.1845217,
    "lon": 141.1337514,
    "name": "H_1845_1337",
    "town": "利尻町"
  },
  {
    "buraku": "富野・日出町・緑町・本町・富士見町",
    "district": "沓形",
    "lat": 45.1838904,
    "lon": 141.134998,
    "name": "H_1838_1349",
    "town": "利尻町"
  },
  {
    "buraku": "富野・日出町・緑町・本町・富士見町",
    "district": "沓形",
    "lat": 45.1836457,
    "lon": 141.1371968,
    "name": "H_1836_1371",
    "town": "利尻町"
  },
  {
    "buraku": "富野・日出町・緑町・本町・富士見町",
    "district": "沓形",
    "lat": 45.1835834,
    "lon": 141.1363493,
    "name": "H_1835_1363",
    "town": "利尻町"
  },
  {
    "buraku": "富野・日出町・緑町・本町・富士見町",
    "district": "沓形",
    "lat": 45.1835456,
    "lon": 141.1367007,
    "name": "H_1835_1367",
    "town": "利尻町"
  },
  {
    "buraku": "富野・日出町・緑町・本町・富士見町",
    "district": "沓形",
    "lat": 45.1834255,
    "lon": 141.1386249,
    "name": "H_1834_1386",
    "town": "利尻町"
  },
  {
    "buraku": "泉町",
    "district": "沓形",
    "lat": 45.1818894,
    "lon": 141.141604,
    "name": "H_1818_1416",
    "town": "利尻町"
  },
  {
    "buraku": "泉町",
    "district": "沓形",
    "lat": 45.1817422,
    "lon": 141.1402608,
    "name": "H_1817_1402",
    "town": "利尻町"
  },
  {
    "buraku": "泉町",
    "district": "沓形",
    "lat": 45.1811051,
    "lon": 141.1399778,
    "name": "H_1811_1399",
    "town": "利尻町"
  },
  {
    "buraku": "泉町",
    "district": "沓形",
    "lat": 45.1804171,
    "lon": 141.1404971,
    "name": "H_1804_1404",
    "town": "利尻町"
  },
  {
    "buraku": "泉町",
    "district": "沓形",
    "lat": 45.1799133,
    "lon": 141.1392124,
    "name": "H_1799_1392",
    "town": "利尻町"
  },
  {
    "buraku": "泉町",
    "district": "沓形",
    "lat": 45.1798377,
    "lon": 141.139647,
    "name": "H_1798_1396",
    "town": "利尻町"
  },
  {
    "buraku": "泉町",
    "district": "沓形",
    "lat": 45.1795258,
    "lon": 141.1395881,
    "name": "H_1795_1395",
    "town": "利尻町"
  },
  {
    "buraku": "泉町",
    "district": "沓形",
    "lat": 45.1795069,
    "lon": 141.1393681,
    "name": "H_1795_1393",
    "town": "利尻町"
  },
  {
    "buraku": "泉町",
    "district": "沓形",
    "lat": 45.1790034,
    "lon": 141.1377481,
    "name": "H_1790_1377",
    "town": "利尻町"
  },
  {
    "buraku": "泉町",
    "district": "沓形",
    "lat": 45.1788408,
    "lon": 141.1372921,
    "name": "H_1788_1372",
    "town": "利尻町"
  },
  {
    "buraku": "泉町",
    "district": "沓形",
    "lat": 45.1782154,
    "lon": 141.1394976,
    "name": "H_1782_1394",
    "town": "利尻町"
  },
  {
    "buraku": "泉町",
    "district": "沓形",
    "lat": 45.1762629,
    "lon": 141.1377278,
    "name": "H_1762_1377",
    "town": "利尻町"
  },
  {
    "buraku": "神居",
    "district": "沓形",
    "lat": 45.1745589,
    "lon": 141.1387238,
    "name": "H_1745_1387",
    "town": "利尻町"
  },
  {
    "buraku": "神居",
    "district": "沓形",
    "lat": 45.1725647,
    "lon": 141.1392606,
    "name": "H_1725_1392",
    "town": "利尻町"
  },
  {
    "buraku": "神居",
    "district": "沓形",
    "lat": 45.1723075,
    "lon": 141.1388261,
    "name": "H_1723_1388",
    "town": "利尻町"
  },
  {
    "buraku": "神居",
    "district": "沓形",
    "lat": 45.1721789,
    "lon": 141.1390943,
    "name": "H_1721_1390",
    "town": "利尻町"
  },
  {
    "buraku": "神居",
    "district": "沓形",
    "lat": 45.1719407,
    "lon": 141.1390031,
    "name": "H_1719_1390",
    "town": "利尻町"
  },
  {
    "buraku": "神居",
    "district": "沓形",
    "lat": 45.1704874,
    "lon": 141.1384103,
    "name": "H_1704_1384",
    "town": "利尻町"
  },
  {
    "buraku": "神居",
    "district": "沓形",
    "lat": 45.1698969,
    "lon": 141.1385708,
    "name": "H_1698_1385",
    "town": "利尻町"
  },
  {
    "buraku": "神居",
    "district": "沓形",
    "lat": 45.1695078,
    "lon": 141.1397705,
    "name": "H_1695_1397",
    "town": "利尻町"
  },
  {
    "buraku": "神居",
    "district": "沓形",
    "lat": 45.1642297,
    "lon": 141.1430654,
    "name": "H_1642_1430",
    "town": "利尻町"
  },
  {
    "buraku": "神居",
    "district": "沓形",
    "lat": 45.163794,
    "lon": 141.1420934,
    "name": "H_1637_1420",
    "town": "利尻町"
  },
  {
    "buraku": "神居",
    "district": "沓形",
    "lat": 45.1629892,
    "lon": 141.1421148,
    "name": "H_1629_1421",
    "town": "利尻町"
  },
  {
    "buraku": "神居",
    "district": "沓形",
    "lat": 45.1630233,
    "lon": 141.1426459,
    "name": "H_1630_1426",
    "town": "利尻町"
  },
  {
    "buraku": "神居",
    "district": "沓形",
    "lat": 45.1631035,
    "lon": 141.1434784,
    "name": "H_1631_1434",
    "town": "利尻町"
  },
  {
    "buraku": "神居",
    "district": "沓形",
    "lat": 45.1624446,
    "lon": 141.1426244,
    "name": "H_1624_1426",
    "town": "利尻町"
  },
  {
    "buraku": "神居",
    "district": "沓形",
    "lat": 45.1613739,
    "lon": 141.1450036,
    "name": "H_1613_1450",
    "town": "利尻町"
  },
  {
    "buraku": "蘭泊",
    "district": "沓形",
    "lat": 45.1544086,
    "lon": 141.1510617,
    "name": "H_1544_1510",
    "town": "利尻町"
  },
  {
    "buraku": "蘭泊",
    "district": "沓形",
    "lat": 45.151713,
    "lon": 141.152844,
    "name": "H_1517_1528",
    "town": "利尻町"
  },
  {
    "buraku": "蘭泊",
    "district": "沓形",
    "lat": 45.1490644,
    "lon": 141.1564134,
    "name": "H_1490_1564",
    "town": "利尻町"
  },
  {
    "buraku": "久連",
    "district": "仙法志",
    "lat": 45.1488286,
    "lon": 141.1568409,
    "name": "H_1488_1568",
    "town": "利尻町"
  },
  {
    "buraku": "久連",
    "district": "仙法志",
    "lat": 45.1484215,
    "lon": 141.1578882,
    "name": "H_1484_1578",
    "town": "利尻町"
  },
  {
    "buraku": "久連",
    "district": "仙法志",
    "lat": 45.1386527,
    "lon": 141.165883,
    "name": "H_1386_1658",
    "town": "利尻町"
  },
  {
    "buraku": "久連",
    "district": "仙法志",
    "lat": 45.1376793,
    "lon": 141.166274,
    "name": "H_1376_1662",
    "town": "利尻町"
  },
  {
    "buraku": "久連",
    "district": "仙法志",
    "lat": 45.1370722,
    "lon": 141.168404,
    "name": "H_1370_1684",
    "town": "利尻町"
  },
  {
    "buraku": "久連",
    "district": "仙法志",
    "lat": 45.1364546,
    "lon": 141.1676095,
    "name": "H_1364_1676",
    "town": "利尻町"
  },
  {
    "buraku": "久連",
    "district": "仙法志",
    "lat": 45.1362881,
    "lon": 141.1681353,
    "name": "H_1362_1681",
    "town": "利尻町"
  },
  {
    "buraku": "久連",
    "district": "仙法志",
    "lat": 45.1364516,
    "lon": 141.1688868,
    "name": "H_1364_1688",
    "town": "利尻町"
  },
  {
    "buraku": "久連",
    "district": "仙法志",
    "lat": 45.1360732,
    "lon": 141.1691658,
    "name": "H_1360_1691",
    "town": "利尻町"
  },
  {
    "buraku": "久連",
    "district": "仙法志",
    "lat": 45.1356264,
    "lon": 141.1687017,
    "name": "H_1356_1687",
    "town": "利尻町"
  },
  {
    "buraku": "久連",
    "district": "仙法志",
    "lat": 45.1352972,
    "lon": 141.1690933,
    "name": "H_1352_1690",
    "town": "利尻町"
  },
  {
    "buraku": "長浜",
    "district": "仙法志",
    "lat": 45.1279996,
    "lon": 141.180658,
    "name": "H_1279_1806",
    "town": "利尻町"
  },
  {
    "buraku": "長浜",
    "district": "仙法志",
    "lat": 45.1275998,
    "lon": 141.1824476,
    "name": "H_1275_1824",
    "town": "利尻町"
  },
  {
    "buraku": "長浜",
    "district": "仙法志",
    "lat": 45.1274371,
    "lon": 141.182984,
    "name": "H_1274_1829",
    "town": "利尻町"
  },
  {
    "buraku": "長浜",
    "district": "仙法志",
    "lat": 45.1266709,
    "lon": 141.18514,
    "name": "H_1266_1851",
    "town": "利尻町"
  },
  {
    "buraku": "長浜",
    "district": "仙法志",
    "lat": 45.1264901,
    "lon": 141.1862968,
    "name": "H_1264_1862",
    "town": "利尻町"
  },
  {
    "buraku": "長浜",
    "district": "仙法志",
    "lat": 45.1261867,
    "lon": 141.1871998,
    "name": "H_1261_1871",
    "town": "利尻町"
  },
  {
    "buraku": "神磯",
    "district": "仙法志",
    "lat": 45.1254663,
    "lon": 141.1910171,
    "name": "H_1254_1910",
    "town": "利尻町"
  },
  {
    "buraku": "神磯",
    "district": "仙法志",
    "lat": 45.12012,
    "lon": 141.1983058,
    "name": "H_1201_1983",
    "town": "利尻町"
  },
  {
    "buraku": "神磯",
    "district": "仙法志",
    "lat": 45.1202539,
    "lon": 141.1987064,
    "name": "H_1202_1987",
    "town": "利尻町"
  },
  {
    "buraku": "神磯",
    "district": "仙法志",
    "lat": 45.1190237,
    "lon": 141.2001839,
    "name": "H_1190_2001",
    "town": "利尻町"
  },
  {
    "buraku": "神磯",
    "district": "仙法志",
    "lat": 45.1187323,
    "lon": 141.2006667,
    "name": "H_1187_2006",
    "town": "利尻町"
  },
  {
    "buraku": "神磯",
    "district": "仙法志",
    "lat": 45.1179306,
    "lon": 141.2012737,
    "name": "H_1179_2012",
    "town": "利尻町"
  },
  {
    "buraku": "神磯",
    "district": "仙法志",
    "lat": 45.1187228,
    "lon": 141.2021983,
    "name": "H_1187_2021",
    "town": "利尻町"
  },
  {
    "buraku": "神磯",
    "district": "仙法志",
    "lat": 45.1174726,
    "lon": 141.2017458,
    "name": "H_1174_2017",
    "town": "利尻町"
  },
  {
    "buraku": "神磯",
    "district": "仙法志",
    "lat": 45.1193133,
    "lon": 141.2032926,
    "name": "H_1193_2032",
    "town": "利尻町"
  },
  {
    "buraku": "神磯",
    "district": "仙法志",
    "lat": 45.1168902,
    "lon": 141.202176,
    "name": "H_1168_2021",
    "town": "利尻町"
  },
  {
    "buraku": "神磯",
    "district": "仙法志",
    "lat": 45.1163905,
    "lon": 141.2023047,
    "name": "H_1163_2023",
    "town": "利尻町"
  },
  {
    "buraku": "神磯",
    "district": "仙法志",
    "lat": 45.1159627,
    "lon": 141.2022511,
    "name": "H_1159_2022",
    "town": "利尻町"
  },
  {
    "buraku": "神磯",
    "district": "仙法志",
    "lat": 45.1156135,
    "lon": 141.2027696,
    "name": "H_1156_2027",
    "town": "利尻町"
  },
  {
    "buraku": "政泊",
    "district": "仙法志",
    "lat": 45.1176023,
    "lon": 141.2048161,
    "name": "H_1176_2048",
    "town": "利尻町"
  },
  {
    "buraku": "政泊",
    "district": "仙法志",
    "lat": 45.1157831,
    "lon": 141.2040999,
    "name": "H_1157_2040",
    "town": "利尻町"
  },
  {
    "buraku": "政泊",
    "district": "仙法志",
    "lat": 45.115509,
    "lon": 141.2039961,
    "name": "H_1155_2039",
    "town": "利尻町"
  },
  {
    "buraku": "政泊",
    "district": "仙法志",
    "lat": 45.1154598,
    "lon": 141.2050234,
    "name": "H_1154_2050",
    "town": "利尻町"
  },
  {
    "buraku": "政泊",
    "district": "仙法志",
    "lat": 45.115263,
    "lon": 141.2053721,
    "name": "H_1152_2053",
    "town": "利尻町"
  },
  {
    "buraku": "政泊",
    "district": "仙法志",
    "lat": 45.1150699,
    "lon": 141.205356,
    "name": "H_1150_2053",
    "town": "利尻町"
  },
  {
    "buraku": "政泊",
    "district": "仙法志",
    "lat": 45.1176175,
    "lon": 141.2068331,
    "name": "H_1176_2068",
    "town": "利尻町"
  },
  {
    "buraku": "政泊",
    "district": "仙法志",
    "lat": 45.1141486,
    "lon": 141.2080556,
    "name": "H_1141_2080",
    "town": "利尻町"
  },
  {
    "buraku": "政泊",
    "district": "仙法志",
    "lat": 45.1138382,
    "lon": 141.208667,
    "name": "H_1138_2086",
    "town": "利尻町"
  },
  {
    "buraku": "政泊",
    "district": "仙法志",
    "lat": 45.1135127,
    "lon": 141.2085382,
    "name": "H_1135_2085",
    "town": "利尻町"
  },
  {
    "buraku": "政泊",
    "district": "仙法志",
    "lat": 45.1132505,
    "lon": 141.2088686,
    "name": "H_1132_2088",
    "town": "利尻町"
  },
  {
    "buraku": "政泊",
    "district": "仙法志",
    "lat": 45.1131045,
    "lon": 141.2104698,
    "name": "H_1131_2104",
    "town": "利尻町"
  },
  {
    "buraku": "政泊",
    "district": "仙法志",
    "lat": 45.1121695,
    "lon": 141.2106951,
    "name": "H_1121_2106",
    "town": "利尻町"
  },
  {
    "buraku": "政泊",
    "district": "仙法志",
    "lat": 45.1125215,
    "lon": 141.2109204,
    "name": "H_1125_2109",
    "town": "利尻町"
  },
  {
    "buraku": "本町",
    "district": "仙法志",
    "lat": 45.1109702,
    "lon": 141.2141438,
    "name": "H_1109_2141",
    "town": "利尻町"
  },
  {
    "buraku": "本町",
    "district": "仙法志",
    "lat": 45.1112163,
    "lon": 141.214868,
    "name": "H_1112_2148",
    "town": "利尻町"
  },
  {
    "buraku": "本町",
    "district": "仙法志",
    "lat": 45.1107242,
    "lon": 141.2152221,
    "name": "H_1107_2152",
    "town": "利尻町"
  },
  {
    "buraku": "本町",
    "district": "仙法志",
    "lat": 45.1105336,
    "lon": 141.2154636,
    "name": "H_1105_2154",
    "town": "利尻町"
  },
  {
    "buraku": "本町",
    "district": "仙法志",
    "lat": 45.1113909,
    "lon": 141.2168461,
    "name": "H_1113_2168",
    "town": "利尻町"
  },
  {
    "buraku": "本町",
    "district": "仙法志",
    "lat": 45.1099756,
    "lon": 141.218347,
    "name": "H_1099_2183",
    "town": "利尻町"
  },
  {
    "buraku": "本町",
    "district": "仙法志",
    "lat": 45.1071109,
    "lon": 141.2182966,
    "name": "H_1071_2182",
    "town": "利尻町"
  },
  {
    "buraku": "本町",
    "district": "仙法志",
    "lat": 45.1080022,
    "lon": 141.2187599,
    "name": "H_1080_2187",
    "town": "利尻町"
  },
  {
    "buraku": "本町",
    "district": "仙法志",
    "lat": 45.1076646,
    "lon": 141.218891,
    "name": "H_1076_2188",
    "town": "利尻町"
  },
  {
    "buraku": "本町",
    "district": "仙法志",
    "lat": 45.1072161,
    "lon": 141.2189003,
    "name": "H_1072_2189",
    "town": "利尻町"
  },
  {
    "buraku": "本町",
    "district": "仙法志",
    "lat": 45.1068639,
    "lon": 141.2198209,
    "name": "H_1068_2198",
    "town": "利尻町"
  },
  {
    "buraku": "元村",
    "district": "仙法志",
    "lat": 45.1067276,
    "lon": 141.2201696,
    "name": "H_1067_2201",
    "town": "利尻町"
  },
  {
    "buraku": "元村",
    "district": "仙法志",
    "lat": 45.1064436,
    "lon": 141.2209367,
    "name": "H_1064_2209",
    "town": "利尻町"
  },
  {
    "buraku": "元村",
    "district": "仙法志",
    "lat": 45.1079586,
    "lon": 141.2225588,
    "name": "H_1079_2225",
    "town": "利尻町"
  },
  {
    "buraku": "元村",
    "district": "仙法志",
    "lat": 45.1064667,
    "lon": 141.2224071,
    "name": "H_1064_2224",
    "town": "利尻町"
  },
  {
    "buraku": "元村",
    "district": "仙法志",
    "lat": 45.1064311,
    "lon": 141.2238985,
    "name": "H_1064_2238",
    "town": "利尻町"
  },
  {
    "buraku": "元村",
    "district": "仙法志",
    "lat": 45.1061591,
    "lon": 141.2255371,
    "name": "H_1061_2255",
    "town": "利尻町"
  },
  {
    "buraku": "元村",
    "district": "仙法志",
    "lat": 45.1059702,
    "lon": 141.2261239,
    "name": "H_1059_2261",
    "town": "利尻町"
  },
  {
    "buraku": "元村",
    "district": "仙法志",
    "lat": 45.1064435,
    "lon": 141.2264297,
    "name": "H_1064_2264",
    "town": "利尻町"
  },
  {
    "buraku": "元村",
    "district": "仙法志",
    "lat": 45.105861,
    "lon": 141.2266559,
    "name": "H_1058_2266",
    "town": "利尻町"
  },
  {
    "buraku": "元村",
    "district": "仙法志",
    "lat": 45.1058005,
    "lon": 141.2269617,
    "name": "H_1058_2269",
    "town": "利尻町"
  },
  {
    "buraku": "元村",
    "district": "仙法志",
    "lat": 45.1054103,
    "lon": 141.2274857,
    "name": "H_1054_2274",
    "town": "利尻町"
  },
  {
    "buraku": "御崎",
    "district": "仙法志",
    "lat": 45.1052855,
    "lon": 141.2278468,
    "name": "H_1052_2278",
    "town": "利尻町"
  },
  {
    "buraku": "御崎",
    "district": "仙法志",
    "lat": 45.099954,
    "lon": 141.228227,
    "name": "H_0999_2282",
    "town": "利尻町"
  },
  {
    "buraku": "御崎",
    "district": "仙法志",
    "lat": 45.0996921,
    "lon": 141.228644,
    "name": "H_0996_2286",
    "town": "利尻町"
  },
  {
    "buraku": "御崎",
    "district": "仙法志",
    "lat": 45.1013171,
    "lon": 141.2289152,
    "name": "H_1013_2289",
    "town": "利尻町"
  },
  {
    "buraku": "御崎",
    "district": "仙法志",
    "lat": 45.1021501,
    "lon": 141.2294408,
    "name": "H_1021_2294",
    "town": "利尻町"
  },
  {
    "buraku": "御崎",
    "district": "仙法志",
    "lat": 45.1002115,
    "lon": 141.2305065,
    "name": "H_1002_2305",
    "town": "利尻町"
  },
  {
    "buraku": "御崎",
    "district": "仙法志",
    "lat": 45.100083,
    "lon": 141.2307556,
    "name": "H_1000_2307",
    "town": "利尻町"
  },
  {
    "buraku": "御崎",
    "district": "仙法志",
    "lat": 45.0999335,
    "lon": 141.2310079,
    "name": "H_0999_2310",
    "town": "利尻町"
  },
  {
    "buraku": "御崎",
    "district": "仙法志",
    "lat": 45.1014286,
    "lon": 141.2312722,
    "name": "H_1014_2312",
    "town": "利尻町"
  },
  {
    "buraku": "御崎",
    "district": "仙法志",
    "lat": 45.0993577,
    "lon": 141.2312092,
    "name": "H_0993_2312",
    "town": "利尻町"
  },
  {
    "buraku": "御崎",
    "district": "仙法志",
    "lat": 45.098564,
    "lon": 141.2332933,
    "name": "H_0985_2332",
    "town": "利尻町"
  },
  {
    "buraku": "御崎",
    "district": "仙法志",
    "lat": 45.0989786,
    "lon": 141.2335938,
    "name": "H_0989_2335",
    "town": "利尻町"
  },
  {
    "buraku": "御崎",
    "district": "仙法志",
    "lat": 45.0991319,
    "lon": 141.234371,
    "name": "H_0991_2343",
    "town": "利尻町"
  },
  {
    "buraku": "御崎",
    "district": "仙法志",
    "lat": 45.09916,
    "lon": 141.2351819,
    "name": "H_0991_2351",
    "town": "利尻町"
  },
  {
    "buraku": "御崎",
    "district": "仙法志",
    "lat": 45.0988753,
    "lon": 141.2353402,
    "name": "H_0988_2353",
    "town": "利尻町"
  },
  {
    "buraku": "御崎",
    "district": "仙法志",
    "lat": 45.0982545,
    "lon": 141.2358986,
    "name": "H_0982_2358",
    "town": "利尻町"
  },
  {
    "buraku": "御崎",
    "district": "仙法志",
    "lat": 45.0978959,
    "lon": 141.2363079,
    "name": "H_0978_2363",
    "town": "利尻町"
  },
  {
    "buraku": "御崎",
    "district": "仙法志",
    "lat": 45.0983261,
    "lon": 141.2369949,
    "name": "H_0983_2369",
    "town": "利尻町"
  },
  {
    "buraku": "御崎",
    "district": "仙法志",
    "lat": 45.0986909,
    "lon": 141.237183,
    "name": "H_0986_2371",
    "town": "利尻町"
  },
  {
    "buraku": "御崎",
    "district": "仙法志",
    "lat": 45.0983485,
    "lon": 141.2378509,
    "name": "H_0983_2378",
    "town": "利尻町"
  },
  {
    "buraku": "御崎",
    "district": "仙法志",
    "lat": 45.0976072,
    "lon": 141.2378178,
    "name": "H_0976_2378",
    "town": "利尻町"
  },
  {
    "buraku": "御崎",
    "district": "仙法志",
    "lat": 45.0980579,
    "lon": 141.2384079,
    "name": "H_0980_2384",
    "town": "利尻町"
  },
  {
    "buraku": "御崎",
    "district": "仙法志",
    "lat": 45.104712,
    "lon": 141.2387548,
    "name": "H_1047_2387",
    "town": "利尻町"
  },
  {
    "buraku": "御崎",
    "district": "仙法志",
    "lat": 45.0988451,
    "lon": 141.2393708,
    "name": "H_0988_2393",
    "town": "利尻町"
  },
  {
    "buraku": "御崎",
    "district": "仙法志",
    "lat": 45.0988214,
    "lon": 141.2398858,
    "name": "H_0988_2398",
    "town": "利尻町"
  }
]